City_ID,City,Lat,Lng,Max Temp,Humidity,Cloudiness,Wind Speed,Country,Date
0,port-aux-francais,-49.35,70.2167,32.76,74,100,18.72,TF,1727975852
1,puerto ayora,-0.7393,-90.3518,70.56,96,97,5.99,EC,1727975853
2,bethel,41.3712,-73.414,71.02,75,100,5.75,US,1727975854
3,puerto natales,-51.7236,-72.4875,48.65,49,20,41.43,CL,1727975855
4,monrovia,6.3005,-10.7969,79.66,79,78,10.56,LR,1727975857
5,louga,58.7372,29.8453,49.41,92,100,3.85,RU,1727975858
6,pisco,-13.7,-76.2167,67.01,82,0,11.5,PE,1727975859
7,kone,-21.0595,164.8658,61.39,84,24,3.0,NC,1727975860
8,yellowknife,62.456,-114.3525,33.42,94,20,8.05,CA,1727975862
9,adamstown,-25.066,-130.1015,69.64,80,77,15.99,PN,1727975863
10,newman,37.3138,-121.0208,89.74,14,0,4.41,US,1727975839
11,bairnsdale,-37.8333,147.6167,48.06,96,78,3.89,AU,1727975865
12,north bend,43.4065,-124.2243,62.26,62,0,5.75,US,1727975866
13,taiohae,43.4065,-124.2243,62.26,62,0,5.75,US,1727975866
14,iqaluit,63.7506,-68.5145,38.93,100,100,15.01,CA,1727975869
15,buurhakaba,2.8026,44.0781,80.44,58,100,19.33,SO,1727975870
16,atafu village,-8.5421,-172.5159,82.58,78,41,13.76,TK,1727975871
17,saint-philippe,-21.3585,55.7679,72.57,80,48,9.82,RE,1727975872
18,trujillo,-8.116,-79.03,64.36,82,75,12.66,PE,1727975794
19,thompson,55.7435,-97.8558,35.76,80,100,10.36,CA,1727975874
20,iskateley,67.6803,53.1512,35.31,84,100,6.38,RU,1727975876
21,hilo,19.7297,-155.09,71.11,91,100,6.91,US,1727975877
22,grytviken,-54.2811,-36.5092,30.76,96,87,21.79,GS,1727975878
23,kristiansund,63.1115,7.732,49.12,87,75,8.05,NO,1727975879
24,celestun,20.8667,-90.4,88.95,60,28,3.29,MX,1727975880
25,blackmans bay,-43.0167,147.3167,48.33,87,29,11.72,AU,1727975882
26,casalbordino-miracoli,42.1535,14.5991,69.49,83,100,19.17,IT,1727975883
27,nabire,-3.3667,135.4833,73.47,95,90,3.6,ID,1727975884
28,minot air force base,48.4209,-101.3391,57.38,38,0,17.27,US,1727975885
29,hawaiian paradise park,19.5933,-154.9731,70.9,93,100,6.91,US,1727975886
30,mariental,-24.6333,17.9667,82.44,14,57,13.42,NA,1727975887
31,albany,42.6001,-73.9662,71.28,61,59,1.95,US,1727975888
32,paso de los toros,-32.8167,-56.5167,60.67,47,16,6.8,UY,1727975890
33,vilyuchinsk,52.9306,158.4028,50.27,71,14,12.62,RU,1727975891
34,margaret river,-33.95,115.0667,58.57,84,100,21.21,AU,1727975892
35,waitangi,-43.9535,-176.5597,52.83,91,99,7.0,NZ,1727975893
36,san-pedro,4.7485,-6.6363,78.53,81,52,9.55,CI,1727975895
37,argo,37.6333,22.7333,72.28,63,0,2.15,GR,1727975896
38,brisas de zicatela,15.8369,-97.0419,79.32,83,100,5.75,MX,1727975897
39,jamestown,42.097,-79.2353,72.01,49,0,8.05,US,1727975898
40,sinabang,2.4803,96.3801,79.79,81,100,3.42,ID,1727975900
41,tamazunchale,21.2667,-98.7833,85.05,43,82,4.07,MX,1727975901
42,tromso,69.6496,18.957,41.02,87,100,4.61,NO,1727975902
43,ushuaia,-54.8,-68.3,42.46,70,40,13.8,AR,1727975903
44,helena valley west central,46.6629,-112.0604,53.73,45,0,3.0,US,1727975905
45,luganville,-15.5333,167.1667,74.32,81,45,4.38,VU,1727975906
46,arraial do cabo,-22.9661,-42.0278,78.76,73,40,14.97,BR,1727975907
47,ilulissat,69.2167,-51.1,50.02,53,75,14.97,GL,1727975908
48,hermanus,-34.4187,19.2345,63.81,72,5,13.38,ZA,1727975909
49,punta arenas,-53.15,-70.9167,46.51,57,40,50.64,CL,1727975910
50,tokombere,11.2271,13.4858,78.04,73,98,1.05,NG,1727975912
51,tiksi,71.6872,128.8694,27.7,81,100,8.57,RU,1727975913
52,balpyk bi,44.8947,78.2083,52.45,35,4,9.15,KZ,1727975914
53,tolanaro,-25.0319,46.9987,66.27,77,40,9.22,MG,1727975915
54,trincomalee,8.5711,81.2335,82.4,75,9,8.88,LK,1727975916
55,kayangel,8.0823,134.7173,83.44,76,78,8.99,PW,1727975917
56,isafjordur,66.0755,-23.124,37.44,70,75,19.57,IS,1727975919
57,bubaque,11.2833,-15.8333,81.54,71,92,7.47,GW,1727975920
58,codrington,-38.2667,141.9667,57.65,92,100,16.84,AU,1727975921
59,guanica,17.9716,-66.908,91.04,66,32,6.62,PR,1727975922
60,east london,-33.0153,27.9116,65.34,72,20,13.8,ZA,1727975809
61,yantai,37.5333,121.4,58.28,58,0,4.65,CN,1727975924
62,pointe michel,15.25,-61.3833,90.54,58,75,2.3,DM,1727975926
63,quellon,-43.1167,-73.6167,47.39,72,100,2.77,CL,1727975713
64,constitucion,-35.3333,-72.4167,61.09,53,95,8.86,CL,1727975928
65,vorgashor,67.5833,63.95,32.31,97,100,6.82,RU,1727975929
66,west island,-12.1568,96.8225,78.78,78,100,14.97,CC,1727975930
67,avarua,-21.2078,-159.775,69.85,64,75,3.44,CK,1727975931
68,talnakh,69.4865,88.3972,33.87,99,100,5.44,RU,1727975933
69,inhambane,-23.865,35.3833,71.58,73,75,17.27,MZ,1727975934
70,afaahiti,-17.75,-149.2833,75.78,83,100,10.58,PF,1727975935
71,bushland beach,-17.75,-149.2833,75.78,83,100,10.58,PF,1727975935
72,chilliwack,49.1747,-121.9443,55.11,84,100,4.0,CA,1727975737
73,akrehamn,59.2667,5.1833,53.85,71,20,14.97,NO,1727975938
74,pandan,14.0453,124.1694,79.29,91,100,5.19,PH,1727975940
75,margate,51.3813,1.3862,56.88,67,36,1.01,GB,1727975941
76,jindabyne,-36.4167,148.6333,44.35,83,33,5.86,AU,1727975942
77,kvissleby,62.2936,17.375,42.64,80,68,3.65,SE,1727975943
78,risod,19.9667,76.7833,76.17,76,80,6.82,IN,1727975944
79,petropavlovsk-kamchatsky,53.0452,158.6483,48.79,50,40,8.95,RU,1727975946
80,cape canaveral,28.4058,-80.6048,89.67,75,0,10.36,US,1727975827
81,egyek,47.6333,20.9,53.98,97,100,8.32,HU,1727975894
82,bikenibeu village,1.3673,173.1241,80.56,89,100,5.75,KI,1727975949
83,alesund,62.4723,6.1549,50.32,92,75,5.75,NO,1727975950
84,anna regina,7.2644,-58.5077,87.85,64,92,10.07,GY,1727975951
85,alotau,-10.3069,150.4462,73.89,94,100,4.18,PG,1727975952
86,sharan,54.8167,54.0,46.42,39,100,4.56,RU,1727975954
87,basco,20.4487,121.9702,82.09,77,100,10.74,PH,1727975955
88,skovorodino,53.9833,123.9167,36.9,43,97,1.19,RU,1727975956
89,yilan,24.757,121.753,75.27,94,100,8.48,TW,1727975957
90,timbuktu,16.7735,-3.0074,101.07,19,100,3.47,ML,1727975958
91,gobabis,-22.45,18.9667,78.53,19,2,12.97,NA,1727975960
92,westport,41.1415,-73.3579,71.37,66,75,10.36,US,1727975961
93,singapore,1.2897,103.8501,80.55,85,75,2.3,SG,1727975696
94,kodiak,57.79,-152.4072,44.11,100,100,0.0,US,1727975963
95,tamanrasset,22.785,5.5228,89.51,14,40,2.3,DZ,1727975964
96,nantucket,41.2835,-70.0995,64.51,72,40,3.44,US,1727975750
97,klyuchi,52.2667,79.1667,42.21,64,5,5.55,RU,1727975966
98,hammerfest,70.6634,23.6821,39.65,87,75,4.61,NO,1727975968
99,edinburgh of the seven seas,-37.0676,-12.3116,58.41,84,99,28.25,SH,1727975969
100,valentin gomez farias,28.2167,-106.5833,73.02,30,0,1.57,MX,1727975970
101,bandon,51.7469,-8.7425,56.79,91,89,16.08,IE,1727975971
102,broome,42.2506,-75.833,67.69,67,20,6.91,US,1727975973
103,diego de almagro,-26.3667,-70.05,84.85,15,1,10.16,CL,1727975974
104,qaqortoq,60.7167,-46.0333,40.03,68,15,2.82,GL,1727975975
105,olonkinbyen,70.9221,-8.7187,29.79,66,99,15.03,SJ,1727975976
106,mar del plata,-38.0023,-57.5575,55.94,68,4,11.01,AR,1727975741
107,lauro de freitas,-12.8944,-38.3272,82.42,74,75,16.11,BR,1727975781
108,kargasok,59.0556,80.8572,37.9,82,97,8.25,RU,1727975980
109,stephenville,32.2207,-98.2023,86.14,46,0,6.91,US,1727975981
110,okhotsk,59.3833,143.3,37.63,96,100,18.5,RU,1727975982
111,saskatoon,52.1168,-106.6345,36.99,64,97,11.01,CA,1727975382
112,mount gambier,-37.8333,140.7667,55.44,97,100,8.05,AU,1727975985
113,alofi,-19.0595,-169.9187,73.29,78,75,11.5,NU,1727975987
114,dom pedrito,-30.9828,-54.6731,61.56,48,31,9.04,BR,1727975988
115,mermoz boabab,14.7065,-17.4758,80.83,81,100,10.31,SN,1727975989
116,enewetak,11.3474,162.3373,83.37,77,71,10.38,MH,1727975990
117,puerto el triunfo,13.2833,-88.55,82.42,77,85,8.3,SV,1727975991
118,axum,14.1245,38.7244,64.72,56,74,10.22,ET,1727975992
119,whitehorse,60.7161,-135.0538,38.01,92,40,11.5,CA,1727975993
120,hobyo,5.3505,48.5268,78.46,79,90,20.69,SO,1727975995
121,hithadhoo,-0.6,73.0833,83.01,74,100,6.8,MV,1727975996
122,port alfred,-33.5906,26.891,64.18,85,0,7.0,ZA,1727975997
123,campbellsville,37.3434,-85.3419,76.17,58,0,3.0,US,1727975998
124,zouerate,22.7187,-12.4521,104.36,11,54,8.41,MR,1727975999
125,tanjung selor,2.8372,117.3642,74.46,96,100,1.12,ID,1727976000
126,saipan,15.1355,145.701,79.5,83,100,4.61,MP,1727976002
127,toamasina,-18.1667,49.3833,75.2,83,75,12.66,MG,1727976003
128,shitanjing,39.2342,106.3439,54.01,56,78,6.67,CN,1727976004
129,uppiliyapuram,11.2667,78.5167,78.01,90,90,6.46,IN,1727976005
130,papatowai,-46.5619,169.4708,47.1,98,100,15.39,NZ,1727976006
131,akbarabad,29.2464,52.7793,72.1,38,2,5.12,IR,1727976007
132,assab,13.0092,42.7394,87.1,75,95,13.69,ER,1727976009
133,holualoa,19.6228,-155.9522,73.24,87,40,4.61,US,1727975750
134,ribeira grande,38.5167,-28.7,77.4,88,75,10.0,PT,1727976011
135,keflavik,64.0049,-22.5624,46.83,71,75,17.27,IS,1727976012
136,santo domingo de la calzada,42.4285,-2.9555,59.63,54,4,6.98,ES,1727976013
137,vadso,70.0744,29.7487,41.16,65,0,11.5,NO,1727976015
138,happy valley-goose bay,53.3168,-60.3315,55.71,58,75,12.66,CA,1727976016
139,utrik,11.2278,169.8474,81.75,80,98,16.89,MH,1727976017
140,cooma,-36.2333,149.1333,40.26,86,32,3.22,AU,1727976018
141,vingt cinq,-36.2333,149.1333,40.26,86,32,3.22,AU,1727976018
142,longyearbyen,78.2186,15.6401,24.64,80,75,8.05,SJ,1727976021
143,concepcion del oro,24.6333,-101.4167,61.05,39,12,2.28,MX,1727976022
144,malanje,-9.5402,16.341,68.7,81,95,7.67,AO,1727976023
145,shamil'kala,42.6858,46.8639,58.12,81,68,1.97,RU,1727976024
146,udachny,66.4167,112.4,26.02,89,97,4.7,RU,1727976025
147,san antonio de pale,-1.4014,5.6325,76.64,78,51,12.77,GQ,1727975893
148,khalabat,34.06,72.8894,75.78,49,0,7.16,PK,1727976028
149,lichuan,30.3,108.85,50.23,68,100,3.0,CN,1727976029
150,porto novo,6.4965,2.6036,80.42,80,94,11.34,BJ,1727976030
151,casper,42.8666,-106.3131,58.71,38,0,5.01,US,1727976031
152,aljezur,37.3191,-8.8033,69.62,86,80,8.97,PT,1727976032
153,black river,18.0264,-77.8487,88.02,65,38,11.1,JM,1727976034
154,arteche,12.2645,125.4048,77.92,90,98,2.8,PH,1727976035
155,fortuna,40.5982,-124.1573,61.72,82,0,0.0,US,1727976036
156,tazovsky,67.4667,78.7,35.62,92,100,15.21,RU,1727976037
157,lompoc,34.6391,-120.4579,87.13,58,20,5.75,US,1727976038
158,bilibino,68.0546,166.4372,16.36,97,99,2.59,RU,1727976039
159,puerto ayacucho,5.6639,-67.6236,93.2,53,12,3.36,VE,1727976040
160,karratha,-20.7377,116.8463,72.5,58,0,12.55,AU,1727976042
161,wailua homesteads,22.0669,-159.378,74.19,89,0,16.11,US,1727976043
162,tamandare,-8.7597,-35.1047,80.08,69,100,11.16,BR,1727976044
163,pontevedra,42.431,-8.6444,72.09,84,100,1.7,ES,1727976045
164,lalibela,12.0333,39.0333,61.47,71,86,8.43,ET,1727976046
165,fort valley,32.5538,-83.8874,83.39,67,75,3.44,US,1727976048
166,uturoa,-16.7333,-151.4333,78.35,80,87,9.46,PF,1727976049
167,casino,-28.8667,153.05,48.76,95,1,3.38,AU,1727976050
168,chernyshevskiy,63.0128,112.4714,30.31,96,99,7.07,RU,1727976051
169,bogande,12.9714,-0.1436,88.14,49,100,9.82,BF,1727976053
170,namibe,-15.1961,12.1522,67.23,85,49,7.4,AO,1727975966
171,gidole,5.65,37.3667,61.05,68,67,3.67,ET,1727976055
172,peniche,39.3558,-9.3811,70.21,99,69,10.45,PT,1727976056
173,kolonia town,6.964,158.206,75.2,94,75,3.44,FM,1727976057
174,port elizabeth,-33.918,25.5701,63.32,88,0,16.11,ZA,1727975986
175,st. john's,47.5649,-52.7093,52.29,87,75,17.27,CA,1727975972
176,hamilton,39.1834,-84.5333,76.24,54,0,8.05,US,1727976061
177,ust'-ilimsk,58.0006,102.6619,31.51,94,97,5.57,RU,1727976062
178,kapa'a,22.0752,-159.319,75.52,86,0,16.11,US,1727976063
179,college,64.8569,-147.8028,24.75,80,20,0.0,US,1727976064
180,puerto san carlos,64.8569,-147.8028,24.75,80,20,0.0,US,1727976064
181,ancud,-41.8697,-73.8203,48.76,68,88,5.06,CL,1727976067
182,bambanglipuro,-7.95,110.2833,77.16,88,81,4.68,ID,1727976068
183,cargados carajos,-7.95,110.2833,77.16,88,81,4.68,ID,1727976068
184,gizo,-8.103,156.8419,80.51,81,99,8.21,SB,1727976070
185,flying fish cove,-10.4217,105.6791,78.48,88,100,11.5,CX,1727976071
186,prokop'yevsk,53.9059,86.719,41.43,59,98,3.18,RU,1727976072
187,tofol,5.3248,163.0078,83.8,64,77,0.72,FM,1727976074
188,khovd,48.0056,91.6419,40.75,90,100,8.79,MN,1727976075
189,aykhal,66.0,111.5,24.51,94,95,4.68,RU,1727976076
190,malayer,34.2969,48.8235,62.64,27,0,5.14,IR,1727975873
191,umm kaddadah,13.6017,26.6876,93.58,23,76,6.53,SD,1727976078
192,ovruch,51.3246,28.8035,58.28,67,100,4.7,UA,1727976079
193,dire,12.2833,-10.9667,83.32,83,88,2.08,ML,1727976081
194,el granada,37.5027,-122.4694,81.86,60,0,3.44,US,1727976082
195,kasane,-17.8167,25.15,77.09,44,0,18.41,BW,1727976083
196,kirakira,-10.4544,161.9205,78.13,85,100,6.82,SB,1727976084
197,deqing,30.5448,119.9599,55.04,82,0,2.21,CN,1727976085
198,invercargill,-46.4,168.35,46.02,98,100,5.99,NZ,1727976086
199,muntok,-2.0667,105.1833,79.88,84,9,7.45,ID,1727976088
200,tralee,52.2704,-9.7026,61.05,77,40,13.8,IE,1727976089
201,tsubata,36.6667,136.7333,67.21,97,96,2.8,JP,1727976090
202,nyrob,60.733,56.7202,41.2,75,100,7.05,RU,1727976091
203,stornoway,58.2093,-6.3865,54.09,75,20,13.8,GB,1727976092
204,jiexiu,37.0244,111.9125,54.28,47,1,4.41,CN,1727976093
205,yashkul',46.1711,45.3435,63.45,34,92,9.08,RU,1727976095
206,bodaybo,57.8506,114.1933,32.94,84,83,4.7,RU,1727976096
207,tuy hoa,13.0833,109.3,76.84,92,97,5.26,VN,1727976097
208,langepas,61.2544,75.2124,38.01,78,95,7.07,RU,1727976098
209,polyarnyy,69.1989,33.4478,36.91,70,100,5.61,RU,1727976099
210,fort st. john,56.2499,-120.8529,31.89,100,100,4.61,CA,1727976100
211,ust-nera,64.5667,143.2,24.82,93,100,1.95,RU,1727976102
212,nouadhibou,20.931,-17.0347,73.38,73,58,18.41,MR,1727976103
213,gereida,11.2811,25.1414,84.43,55,100,4.32,SD,1727976104
214,khvoynaya,58.9,34.5333,48.33,77,100,2.8,RU,1727976105
215,tidjikja,18.5564,-11.4271,98.35,25,100,6.69,MR,1727976106
216,ahvaz,31.3203,48.6693,89.55,22,0,9.22,IR,1727976107
217,sinop,41.7711,34.8709,59.29,87,0,2.21,TR,1727976109
218,kodinar,20.7903,70.7031,81.23,78,41,9.04,IN,1727976110
219,chonchi,-42.6128,-73.8092,48.42,69,86,1.9,CL,1727976111
220,yuzhno-kurilsk,44.0306,145.8556,54.41,93,100,11.56,RU,1727976112
221,ola,59.5833,151.2833,40.55,85,67,6.22,RU,1727976113
222,al jawf,29.5,38.75,81.91,23,0,9.91,SA,1727976114
223,bogale,16.2833,95.4,77.97,92,98,5.44,MM,1727976116
224,sant antoni de portmany,38.9807,1.3036,71.58,72,20,5.75,ES,1727976117
225,praia da vitoria,38.7333,-27.0667,80.85,74,20,12.88,PT,1727976118
226,mastic beach,40.7668,-72.8521,70.12,66,100,8.05,US,1727976119
227,fale old settlement,-9.3852,-171.2468,82.54,78,19,13.73,TK,1727976120
228,dudinka,69.4058,86.1778,32.81,98,100,7.34,RU,1727975988
229,omdurman,15.6445,32.4777,103.23,15,7,11.9,SD,1727976123
230,stanley,54.868,-1.6985,53.28,84,20,3.44,GB,1727976124
231,belmonte,-15.8631,-38.8828,82.53,60,6,11.56,BR,1727976125
232,ghat,24.9647,10.1728,92.37,13,0,7.65,LY,1727976126
233,vilhena,-12.7406,-60.1458,80.82,78,40,9.22,BR,1727976128
234,tindouf,27.6711,-8.1474,102.65,8,31,16.11,DZ,1727976129
235,tyukhtet,56.5389,89.3011,40.05,84,99,6.26,RU,1727976130
236,sarina,-21.4333,149.2167,68.27,1,76,11.5,AU,1727976131
237,port mathurin,-19.6833,63.4167,73.15,88,14,13.06,MU,1727976132
238,tranovaho,-19.6833,63.4167,73.15,88,14,13.06,MU,1727976132
239,cherrapunji,25.3,91.7,61.34,99,100,0.47,IN,1727975955
240,copiapo,-27.3667,-70.3333,79.83,26,0,7.29,CL,1727976115
241,rawson,-43.3002,-65.1023,62.89,20,0,20.71,AR,1727976137
242,gaoping,30.7758,106.1029,63.07,83,100,1.45,CN,1727976138
243,marka,1.7159,44.7717,77.86,85,10,16.73,SO,1727976139
244,katsuura,35.1333,140.3,77.9,89,77,17.49,JP,1727976141
245,fort bragg,35.139,-79.006,81.68,65,20,6.91,US,1727976142
246,crane,31.3974,-102.3501,82.81,30,3,13.76,US,1727976143
247,tynda,55.1667,124.7167,29.91,63,87,2.17,RU,1727976144
248,nar'yan-mar,67.6713,53.087,35.28,84,100,6.49,RU,1727976145
249,anadyr,64.75,177.4833,37.9,100,100,8.95,RU,1727976146
250,ilinge,-31.9768,27.0427,61.54,45,0,13.2,ZA,1727976147
251,necochea,-38.5473,-58.7368,59.14,45,0,1.43,AR,1727976028
252,faridnagar,28.7667,77.6167,80.37,58,0,4.97,IN,1727976150
253,asau village,28.7667,77.6167,80.37,58,0,4.97,IN,1727976150
254,usinsk,65.9939,57.5281,37.72,95,100,4.45,RU,1727976152
255,alice springs,-23.7,133.8833,63.95,36,40,4.61,AU,1727976153
256,xichang,27.8964,102.2634,56.8,94,100,0.16,CN,1727976155
257,gimbi,9.1667,35.8333,57.97,94,81,1.5,ET,1727976156
258,ambon,-3.6954,128.1814,80.87,95,40,6.91,ID,1727976157
259,papao,-17.75,-149.55,76.68,86,100,15.23,PF,1727976158
260,ta`u,-14.2336,-169.5144,80.11,78,24,24.4,AS,1727976159
261,lebu,-37.6167,-73.65,54.68,64,58,14.67,CL,1727976160
262,kegeyli shahar,42.7767,59.6078,67.42,21,73,9.37,UZ,1727976162
263,uyar,55.81,94.3153,30.97,92,32,7.02,RU,1727976163
264,mucumpiz,8.4167,-71.1333,68.41,77,78,4.52,VE,1727976164
265,bredasdorp,-34.5322,20.0403,59.29,85,2,17.78,ZA,1727976165
266,mykolayiv,46.9659,31.9974,62.82,71,23,7.4,UA,1727976166
267,maumere,-8.6199,122.2111,76.64,83,55,4.29,ID,1727976167
268,ha'il,27.5219,41.6907,86.02,21,0,11.5,SA,1727976169
269,cable beach,27.5219,41.6907,86.02,21,0,11.5,SA,1727976169
270,toliara,-23.35,43.6667,72.39,45,0,24.45,MG,1727976171
271,weno,7.4515,151.8468,78.75,89,75,3.44,FM,1727976172
272,archangelos,36.2149,28.1149,73.38,64,0,1.43,GR,1727976173
273,lihue,21.9789,-159.3672,74.79,89,0,16.11,US,1727976174
274,gusinoozyorsk,51.2833,106.5,40.08,84,100,6.78,RU,1727976176
275,villa gesell,-37.2639,-56.973,52.14,62,3,11.63,AR,1727976177
276,seminole,28.7086,-81.2081,90.18,70,20,9.22,US,1727976178
277,salinopolis,-0.6136,-47.3561,84.56,70,82,15.93,BR,1727976179
278,la passe,45.5549,-0.8967,61.59,68,69,7.96,FR,1727976180
279,alta,69.9689,23.2717,38.46,83,75,5.75,NO,1727976181
280,saint-louis,16.3333,-15.0,95.7,39,100,10.56,SN,1727976183
281,balchik,43.4167,28.1667,64.56,94,34,4.0,BG,1727976184
282,hanting,36.7708,119.2108,55.08,52,0,4.63,CN,1727976185
283,tura,25.5198,90.2201,73.47,98,100,3.6,IN,1727976186
284,new norfolk,-42.7826,147.0587,40.93,96,37,2.59,AU,1727976187
285,muli,2.9167,73.5667,83.77,73,100,8.95,MV,1727976188
286,ixtapa,20.7,-105.2,88.83,58,40,4.0,MX,1727976189
287,qarazhal,48.0078,70.7903,53.89,17,0,13.91,KZ,1727976191
288,la'ie,21.6477,-157.9253,78.12,76,12,4.0,US,1727976192
289,freetown,8.484,-13.2299,76.78,87,100,4.7,SL,1727976193
290,talara,-4.5772,-81.2719,83.16,69,0,11.5,PE,1727976194
291,silver springs,29.1044,-82.0206,89.96,69,27,1.01,US,1727976195
292,pacific grove,36.6177,-121.9166,86.41,71,0,3.44,US,1727975972
293,bayanaul,50.7889,75.6956,39.34,60,1,3.94,KZ,1727976198
294,cozumel,20.5083,-86.9458,89.67,66,40,9.22,MX,1727975904
295,santa sylvina,-27.8326,-61.1375,83.05,18,14,8.84,AR,1727976200
296,tsiombe,-25.3,45.4833,65.55,61,82,13.67,MG,1727976201
297,semey,50.4111,80.2275,42.26,58,0,8.99,KZ,1727976202
298,nikolayevsk-on-amure,53.1406,140.73,44.11,86,11,3.69,RU,1727976204
299,macon,39.8667,-88.9668,77.25,33,0,6.91,US,1727976205
300,constantia,44.1833,28.65,61.7,81,7,13.8,RO,1727976206
301,orenburg,51.7727,55.0988,44.62,30,100,8.93,RU,1727976207
302,murun-kuren,49.6342,100.1625,45.16,59,100,3.62,MN,1727976208
303,queenstown,-31.8976,26.8753,62.83,38,1,12.44,ZA,1727976049
304,vilyuysk,63.7553,121.6247,33.55,97,100,4.07,RU,1727976026
305,tinajo,29.0788,-13.7081,77.88,65,20,25.32,ES,1727976212
306,la libertad,-2.2333,-80.9,78.46,69,40,11.5,EC,1727976213
307,howrah,22.5892,88.3103,80.6,94,75,0.0,IN,1727976092
308,el bauga,18.262,33.9081,98.08,14,0,4.14,SD,1727976215
309,luderitz,-26.6481,15.1594,65.37,55,72,3.42,NA,1727976217
310,federal,-30.9547,-58.7833,68.13,35,3,9.13,AR,1727976218
311,cabedelo,-6.9811,-34.8339,84.87,70,100,16.2,BR,1727976219
312,garoowe,8.4054,48.4845,85.64,46,83,13.58,SO,1727976115
313,al jadid,27.05,14.4,84.07,22,0,2.8,LY,1727976221
314,al jumum,21.6169,39.6981,88.95,41,0,7.81,SA,1727976017
315,lypova dolyna,50.5643,33.7979,60.33,32,97,8.39,UA,1727976223
316,carnarvon,-24.8667,113.6333,64.0,70,3,15.39,AU,1727976225
317,thinadhoo,0.5333,72.9333,83.34,74,83,5.75,MV,1727976226
318,whangarei,-35.7317,174.3239,42.35,93,0,1.83,NZ,1727976227
319,piti village,13.4626,144.6933,77.88,93,75,9.22,GU,1727976228
320,mianyang,31.4593,104.7542,59.83,83,100,1.34,CN,1727976229
321,soure,-0.7167,-48.5233,87.93,62,53,12.33,BR,1727976230
322,uttar char fasson,22.2332,90.7132,82.42,81,99,11.74,BD,1727976232
323,hami,42.8,93.45,65.55,23,89,10.22,CN,1727976233
324,san patricio,28.017,-97.5169,87.75,45,0,11.01,US,1727976234
325,vila velha,-20.3297,-40.2925,82.35,78,20,12.66,BR,1727976235
326,moyynkum,44.2914,72.9469,62.06,43,0,22.21,KZ,1727976237
327,berdigestyakh,62.0989,126.6992,34.0,96,100,6.46,RU,1727976238
328,gunjur,13.2019,-16.7339,87.87,62,40,8.05,GM,1727976239
329,rongelap,11.1635,166.8941,83.14,76,89,13.33,MH,1727976073
330,manokwari,-0.8667,134.0833,78.33,77,100,4.12,ID,1727976241
331,beau vallon,-20.4189,57.6953,71.83,88,75,0.0,MU,1727976243
332,chebba,35.2372,11.115,82.9,56,100,14.72,TN,1727976244
333,mana,5.6592,-53.7767,84.13,72,100,10.0,GF,1727976245
334,yekaterinoslavka,50.3734,129.1139,45.88,75,17,8.41,RU,1727976246
335,zeya,53.75,127.2667,39.29,80,95,2.39,RU,1727976247
336,chabahar,25.2919,60.643,85.55,76,0,11.95,IR,1727976248
337,port douglas,-16.4833,145.4667,71.28,81,37,9.66,AU,1727976249
338,kwang binh,17.4833,106.6,73.92,80,90,8.25,VN,1727976251
339,okehampton,50.7384,-4.0016,54.66,85,5,7.14,GB,1727976252
340,yeppoon,-23.1333,150.7333,69.96,57,44,18.61,AU,1727976253
341,olds,51.7834,-114.102,36.84,86,88,3.47,CA,1727976254
342,reggane,26.7158,0.1714,102.16,12,0,2.86,DZ,1727976255
343,black point,-34.6187,137.8972,56.53,81,82,9.82,AU,1727976256
344,castillos,-34.1667,-53.8333,57.0,55,12,8.21,UY,1727976258
345,batticaloa,7.7102,81.6924,82.06,77,48,7.61,LK,1727976259
346,shiprock,36.7855,-108.687,73.22,15,0,0.25,US,1727976260
347,greymouth,-42.4667,171.2,47.1,92,100,6.53,NZ,1727976261
348,kalmar,56.6616,16.3616,50.97,81,0,6.91,SE,1727976262
349,slavyanka,42.8633,131.3847,49.98,79,44,2.28,RU,1727976263
350,tumut,-35.3,148.2167,49.51,68,83,3.85,AU,1727976265
351,sigli,5.3848,95.9609,78.87,82,100,3.8,ID,1727976266
352,toga village,5.3848,95.9609,78.87,82,100,3.8,ID,1727976266
353,sitka,57.0531,-135.33,48.09,81,75,4.61,US,1727976268
354,hirara,24.8,125.2833,75.06,100,75,13.8,JP,1727976269
355,chibougamau,49.9168,-74.3659,56.82,67,100,16.11,CA,1727976271
356,al bab,36.3699,37.5179,74.73,36,0,7.7,SY,1727976272
357,canico,32.6333,-16.85,83.71,65,20,21.85,PT,1727976273
358,campo gallo,-26.5833,-62.85,85.15,15,6,6.96,AR,1727976274
359,liupanshui,-26.5833,-62.85,85.15,15,6,6.96,AR,1727976274
360,imbituba,-28.24,-48.6703,62.51,56,97,13.18,BR,1727976277
361,amargosa,-13.0303,-39.6047,89.62,33,24,6.13,BR,1727976278
362,val-d'or,48.1002,-77.7828,62.69,59,75,13.8,CA,1727976003
363,nhamunda,-2.1861,-56.7131,101.61,33,34,3.06,BR,1727976281
364,magadan,59.5667,150.8,40.01,91,76,7.61,RU,1727976282
365,bocana de paiwas,12.7857,-85.1227,83.55,76,63,7.76,NI,1727976135
366,cooper's town,26.8667,-77.5167,82.62,72,100,5.12,BS,1727976284
367,haiku-pauwela,20.9219,-156.3051,74.25,84,20,13.8,US,1727976285
368,belokurikha,51.9959,84.9896,37.98,75,7,2.08,RU,1727976287
369,marudi,51.9959,84.9896,37.98,75,7,2.08,RU,1727976287
370,nova sintra,14.8667,-24.7167,79.47,80,100,13.27,CV,1727976289
371,port blair,11.6667,92.75,77.04,100,100,8.05,IN,1727976290
372,taoudenni,22.6783,-3.9836,107.69,9,31,4.0,ML,1727976292
373,kutina,45.475,16.7819,50.63,96,100,9.75,HR,1727976293
374,nahuala,14.85,-91.3167,63.36,85,100,6.91,GT,1727976294
375,coquimbo,-29.9533,-71.3436,62.98,55,0,13.8,CL,1727976295
376,susuman,62.7833,148.1667,20.64,95,77,0.67,RU,1727976296
377,oranjestad,12.524,-70.027,87.91,73,40,9.22,AW,1727976178
378,goronyo,13.4423,5.6763,94.5,35,96,2.46,NG,1727976299
379,dunedin,-45.8742,170.5036,46.8,99,100,1.01,NZ,1727976300
380,pahrump,36.2083,-115.9839,84.83,14,0,1.01,US,1727976247
381,jamaame,0.0697,42.745,76.84,80,20,11.52,SO,1727976302
382,vorkuta,67.5,64.0,33.21,96,100,6.78,RU,1727976303
383,prado,-17.3411,-39.2208,80.62,64,17,14.29,BR,1727976305
384,sharm el-sheikh,27.8518,34.305,86.14,42,0,11.5,EG,1727976306
385,cabo san lucas,22.8909,-109.9124,91.71,48,0,5.75,MX,1727976180
386,niafunke,15.9322,-3.9906,98.92,25,100,6.13,ML,1727976308
387,coahuayana de hidalgo,18.7,-103.6583,87.96,67,100,1.79,MX,1727976309
388,pocoes,-14.5297,-40.3653,89.02,24,0,9.86,BR,1727976310
389,cao bang,22.6667,106.25,62.64,78,49,2.55,VN,1727976312
390,bosaso,11.2842,49.1816,85.19,75,57,5.14,SO,1727976313
391,rock springs,41.5875,-109.2029,65.23,21,0,4.61,US,1727976052
392,peace river,56.2501,-117.286,35.91,86,100,9.22,CA,1727976315
393,dalandzadgad,43.5708,104.425,53.96,36,100,9.33,MN,1727976316
394,soio,-6.1349,12.3689,76.1,82,100,10.07,AO,1727976317
395,manismata,-2.4667,111.0333,75.18,98,100,2.13,ID,1727976319
396,ciudad bolivar,8.1222,-63.5497,95.52,44,23,4.18,VE,1727976317
397,usogorsk,63.4106,48.6872,49.17,87,97,7.27,RU,1727976321
398,pyt-yakh,60.7499,72.8582,41.43,77,95,5.79,RU,1727976322
399,juan griego,11.0817,-63.9655,86.13,74,46,16.11,VE,1727976323
400,suncho corral,-27.9336,-63.4294,84.4,15,5,8.79,AR,1727976325
401,nemuro,43.3236,145.575,55.42,92,100,22.1,JP,1727976326
402,san andres,12.5847,-81.7006,86.02,74,20,8.05,CO,1727976327
403,plastun,44.7561,136.2939,44.42,74,100,5.17,RU,1727976328
404,tingo maria,-9.2895,-76.0088,88.11,58,20,2.3,PE,1727976329
405,christchurch,-43.5333,172.6333,51.91,95,75,5.01,NZ,1727976330
406,pithoro,25.5167,69.3833,83.93,65,0,20.69,PK,1727976332
407,bethanie,-26.4833,17.15,84.06,13,79,13.38,NA,1727976333
408,vryheid,-27.7695,30.7917,52.61,73,24,5.73,ZA,1727976334
409,nuku'alofa,-21.1333,-175.2,73.74,100,75,14.97,TO,1727976335
410,scottburgh,-30.2867,30.7532,62.19,72,17,9.15,ZA,1727976336
411,choibalsan,48.0667,114.5,46.18,59,100,7.47,MN,1727976337
412,hasanbeyli,37.1372,36.5593,63.99,49,0,3.4,TR,1727976339
413,puerto santa,-8.9906,-78.6456,67.48,78,64,10.13,PE,1727976340
414,waingapu,-9.6567,120.2641,79.56,78,50,12.68,ID,1727976341
415,minas de marcona,-15.2119,-75.1103,69.01,50,14,9.42,PE,1727976342
416,carahue,-38.7,-73.1667,61.83,44,79,3.8,CL,1727976343
417,luau,-10.7073,22.2247,83.46,24,93,2.1,AO,1727976344
418,iwanai,42.9744,140.5089,53.47,93,100,4.36,JP,1727976346
419,muravlenko,63.7898,74.523,40.35,66,100,12.1,RU,1727976347
420,vuktyl,63.8567,57.3094,48.24,71,100,12.64,RU,1727976348
421,nicoya,10.1483,-85.452,85.77,66,55,1.77,CR,1727976066
422,ytyk-kyuyel',10.1483,-85.452,85.77,66,55,1.77,CR,1727976066
423,severo-yeniseyskiy,60.3725,93.0408,30.11,97,100,7.47,RU,1727976351
424,puerto baquerizo moreno,-0.9,-89.6,74.39,78,75,17.27,EC,1727976353
425,siyabuswa,-25.1132,29.0445,66.33,32,0,15.17,ZA,1727976354
426,caraballeda,10.6112,-66.8522,94.86,68,8,6.91,VE,1727976355
427,weyburn,49.6668,-103.8511,48.42,61,15,13.8,CA,1727976069
428,paracatu,-17.2222,-46.8747,100.06,14,0,5.53,BR,1727976118
429,debark',13.1561,37.8981,53.58,78,81,2.24,ET,1727976359
430,newport beach,33.6189,-117.9289,76.33,80,1,6.82,US,1727976360
431,mount isa,-20.7333,139.5,60.57,44,0,1.14,AU,1727976361
432,ad dilam,23.9915,47.1627,92.26,17,2,11.16,SA,1727976362
433,dwarka,22.2394,68.9678,81.95,80,5,13.35,IN,1727976364
434,geraldton,-28.7667,114.6,59.41,82,100,8.05,AU,1727976365
435,george town,5.4112,100.3354,78.73,88,40,2.3,MY,1727976216
436,kerikeri,-35.2268,173.9474,45.21,83,3,2.86,NZ,1727976367
437,'ohonua,-35.2268,173.9474,45.21,83,3,2.86,NZ,1727976367
438,union city,37.5958,-122.0192,89.89,33,0,5.75,US,1727976042
439,siwa oasis,29.2041,25.5195,82.33,31,0,7.07,EG,1727976371
440,kalabo,-14.97,22.6814,86.79,23,87,12.62,ZM,1727976372
441,matadi,-5.8167,13.45,85.8,57,100,5.08,CD,1727976373
442,saint-pierre,-21.3393,55.4781,73.08,73,75,6.91,RE,1727976079
443,esil,51.9556,66.4042,45.63,39,1,8.75,KZ,1727976376
444,kavaratti,10.5669,72.642,81.57,83,100,3.27,IN,1727976377
445,novaya igirma,57.1334,103.9112,33.15,90,83,5.93,RU,1727976378
446,huilong,31.8111,121.655,62.65,59,0,10.18,CN,1727976379
447,mahibadhoo,3.7833,72.9667,83.98,74,49,10.07,MV,1727976381
448,tommot,58.9564,126.2925,34.5,94,98,13.62,RU,1727976382
449,nova kakhovka,46.7545,33.3486,63.16,75,92,8.43,UA,1727976383
450,colonia,50.9333,6.95,54.95,76,100,5.75,DE,1727976384
451,saint george,37.1041,-113.5841,82.44,16,0,4.0,US,1727976183
452,great torrington,50.9531,-4.144,61.23,76,14,6.11,GB,1727976386
453,badger,64.8,-147.5333,24.67,84,20,0.0,US,1727976387
454,port saint john's,-31.6229,29.5448,64.11,73,0,13.8,ZA,1727976389
455,rosetta,31.4044,30.4164,73.27,61,0,10.27,EG,1727976390
456,taltal,-25.4,-70.4833,63.34,69,28,4.52,CL,1727976391
457,kenai,60.5544,-151.2583,30.25,100,0,3.44,US,1727976392
458,lazaro cardenas,17.9583,-102.2,82.76,79,100,7.0,MX,1727976393
459,boende,-0.2167,20.8667,71.51,88,82,3.04,CD,1727976394
460,leninskoye,41.7589,69.3864,66.9,40,10,5.39,KZ,1727976396
461,kendari,-3.945,122.4989,72.61,92,77,2.53,ID,1727976397
462,gadzhiyevo,69.2551,33.3362,36.68,70,100,5.82,RU,1727976398
463,loa janan,-0.583,117.095,74.05,97,54,1.23,ID,1727976399
464,letterkenny,54.95,-7.7333,53.04,73,100,12.8,IE,1727976400
465,barretos,-20.5572,-48.5678,98.62,23,46,8.37,BR,1727976401
466,kapuskasing,49.4169,-82.4331,55.4,54,75,10.36,CA,1727976403
467,kourou,5.1552,-52.6478,85.41,67,96,8.9,GF,1727976404
468,colesberg,-30.72,25.0972,66.42,22,52,5.61,ZA,1727976405
469,aasiaat,68.7098,-52.8699,36.55,88,98,6.13,GL,1727976406
470,huarmey,-10.0681,-78.1522,70.18,74,25,10.8,PE,1727976407
471,katsuren-haebaru,26.3369,127.8719,80.62,90,75,13.8,JP,1727976408
472,ataq,14.5377,46.8319,78.28,67,13,10.29,YE,1727976410
473,shangrao,28.4532,117.9686,62.08,66,100,10.92,CN,1727976411
474,yadgir,16.7667,77.1333,73.63,88,100,11.21,IN,1727976412
475,laguna,38.421,-121.4238,86.23,34,0,3.44,US,1727976413
476,verkhnevilyuysk,63.4453,120.3167,33.71,99,100,3.78,RU,1727976415
477,nguigmi,14.2495,13.1092,83.16,63,97,12.88,NE,1727976416
478,juruti,-2.1522,-56.0922,94.42,42,36,4.7,BR,1727976417
479,port augusta,-32.5,137.7667,57.83,77,44,2.33,AU,1727976418
480,kyzylorda,44.8528,65.5092,64.42,29,0,8.95,KZ,1727976419
481,souillac,-20.5167,57.5167,71.98,88,75,0.0,MU,1727976420
482,chashniki,54.8569,29.1607,48.72,90,100,7.11,BY,1727976422
483,quang ngai,15.1167,108.8,73.36,87,98,4.23,VN,1727976423
484,ocean city,39.2776,-74.5746,75.18,70,8,5.01,US,1727976424
485,merizo village,13.2658,144.6691,77.58,94,100,15.1,GU,1727976425
486,piatra olt,44.3667,24.2667,67.17,38,96,8.84,RO,1727976426
487,kruisfontein,-34.0033,24.7314,59.47,81,0,14.23,ZA,1727976427
488,opuwo,-18.0607,13.84,90.05,18,59,12.15,NA,1727976429
489,arauca,7.0847,-70.7591,89.6,70,20,5.75,CO,1727976430
490,rikaze,29.25,88.8833,56.61,46,97,5.12,CN,1727976431
491,lashio,22.9333,97.75,67.91,99,100,0.85,MM,1727976432
492,tadine,-21.55,167.8833,65.1,82,0,9.69,NC,1727976434
493,kununurra,-15.7667,128.7333,76.98,83,12,5.75,AU,1727976435
494,carnot,4.9409,15.8665,73.49,93,81,0.89,CF,1727976436
495,hasaki,35.7333,140.8333,77.18,87,36,15.28,JP,1727976437
496,nsunga,-1.1439,31.3947,70.9,53,100,1.7,TZ,1727976438
497,rio grande,-32.035,-52.0986,60.03,58,60,12.26,BR,1727976440
498,costa teguise,-32.035,-52.0986,60.03,58,60,12.26,BR,1727976440
499,kasongo-lunda,-6.4667,16.8167,76.19,84,97,2.24,CD,1727976442
500,priob'ye,62.5206,65.5964,45.19,71,100,6.8,RU,1727976443
501,lata,40.1629,-8.3327,73.49,68,99,6.89,PT,1727976445
502,midvagur,62.0511,-7.1939,50.83,93,75,6.91,FO,1727976446
503,ust-tsilma,65.441,52.1498,37.35,97,100,4.23,RU,1727976447
504,grande prairie,55.1667,-118.8027,37.58,100,75,4.61,CA,1727976448
505,hadibu,12.65,54.0333,79.29,78,13,1.9,YE,1727976449
506,eydhafushi,5.1033,73.0708,82.96,78,36,8.46,MV,1727976451
507,sitangkai,4.6628,119.3928,82.72,76,98,6.4,PH,1727976452
508,mancora,-4.1078,-81.0475,76.55,69,58,8.86,PE,1727976453
509,northam,51.0333,-4.2167,61.61,72,16,6.91,GB,1727976454
510,tikapur,28.5,81.1333,77.95,79,0,2.73,NP,1727976455
511,comodoro rivadavia,-45.8667,-67.5,62.46,25,0,14.97,AR,1727976409
512,diepenbeek,50.9078,5.4221,54.01,73,99,5.01,BE,1727976458
513,massaguet,12.4755,15.4365,80.94,64,99,6.24,TD,1727976459
514,georgetown,5.4112,100.3354,78.73,88,40,2.3,MY,1727976275
515,tual,-5.6667,132.75,80.94,80,97,20.02,ID,1727976461
516,ujae,8.9322,165.7642,83.05,71,83,4.23,MH,1727976462
517,bardai,11.65,7.2333,78.31,62,90,18.5,NG,1727976464
518,shahrinav,38.5709,68.335,73.53,30,6,5.14,TJ,1727976465
519,ban karon,7.8477,98.2985,84.78,89,100,11.61,TH,1727976466
520,ponta delgada,37.7333,-25.6667,77.72,88,75,11.5,PT,1727976467
521,palmas,-10.2128,-48.3603,100.27,23,20,12.66,BR,1727976264
522,alo,6.5486,4.2686,78.28,88,96,11.61,NG,1727976470
523,phalodi,27.1333,72.3667,90.91,36,0,22.62,IN,1727976471
524,mananara,-16.1667,49.7667,69.76,85,4,5.37,MG,1727976472
525,kidal,18.4411,1.4078,100.27,10,13,9.46,ML,1727976473
526,hancheng,32.5186,112.3522,58.77,35,1,5.23,CN,1727976474
527,remire-montjoly,4.9167,-52.2667,89.64,58,100,5.75,GF,1727976440
528,onda,39.9667,-0.25,70.9,65,0,5.17,ES,1727976477
529,saratamata,39.9667,-0.25,70.9,65,0,5.17,ES,1727976477
530,gamba,-2.65,10.0,76.41,84,98,8.77,GA,1727976479
531,khash,28.2211,61.2158,78.12,16,0,3.0,IR,1727976480
532,paris,48.8534,2.3488,56.17,67,75,11.5,FR,1727976300
533,labytnangi,66.6572,66.4183,35.64,81,100,5.26,RU,1727976482
534,laboe,54.4,10.2167,52.0,62,75,10.36,DE,1727976484
535,milngavie,55.9407,-4.3231,55.9,66,75,5.75,GB,1727976485
536,ranohira,55.9407,-4.3231,55.9,66,75,5.75,GB,1727976485
537,anloga,5.7947,0.8973,79.39,82,76,17.94,GH,1727976487
538,melekeok village,7.4957,134.6367,79.36,89,40,0.0,PW,1727976488
539,bargara,7.4957,134.6367,79.36,89,40,0.0,PW,1727976488
540,lazarevskoye,43.9061,39.3331,63.19,83,9,4.54,RU,1727976491
541,cockburn town,21.4612,-71.1419,83.84,67,12,4.03,TC,1727976492
542,suez,29.9737,32.5263,74.37,53,0,12.59,EG,1727976493
543,azrou,33.4344,-5.2213,70.84,56,34,7.36,MA,1727976494
544,fort payne,34.4442,-85.7197,81.16,63,100,5.75,US,1727976496
545,riachao das neves,-11.7461,-44.91,100.44,14,75,4.36,BR,1727976497
546,kalkaman,51.9525,76.0211,44.8,55,2,4.72,KZ,1727976498
547,hell-ville,-13.4,48.2667,78.93,76,12,9.78,MG,1727976499
548,antsiranana,-12.2787,49.2917,75.06,75,42,17.09,MG,1727976500
549,kurumkan,54.3,110.3,35.33,65,47,3.71,RU,1727976501
550,birzebbuga,35.8258,14.5269,81.28,74,0,12.66,MT,1727976503
551,gondar,12.6,37.4667,60.96,85,92,3.38,ET,1727976504
552,jiazi,22.8779,116.067,74.28,65,97,6.55,CN,1727976505
553,chegdomyn,51.1167,133.0167,41.04,84,17,4.72,RU,1727976506
554,smolensk,55.0,33.0,56.25,44,100,5.19,RU,1727976508
555,montevideo,-34.8335,-56.1674,60.51,47,40,6.91,UY,1727976236
556,thurso,58.5927,-3.5259,52.05,75,100,7.76,GB,1727976253
557,tocopilla,-22.092,-70.1979,66.69,73,14,5.57,CL,1727976511
558,egilsstadir,65.2653,-14.3948,39.11,87,75,12.66,IS,1727976512
559,kermanshah,34.3142,47.065,67.1,28,0,16.11,IR,1727976514
560,alaghsas,17.0187,8.0168,98.49,18,4,13.8,NE,1727976515
561,udangudi,8.4333,78.0167,82.29,79,43,18.25,IN,1727976516
562,bellary,15.15,76.9333,78.19,77,87,8.61,IN,1727976517
563,bridgewater,44.3835,-64.5155,64.11,63,5,10.36,CA,1727976518
564,kataragama,44.3835,-64.5155,64.11,63,5,10.36,CA,1727976518
565,el alto,-4.2714,-81.2147,71.47,69,50,9.82,PE,1727976521
566,saint-francois,46.4154,3.9054,54.84,78,0,14.97,FR,1727976522
567,qurayyat,31.3318,37.3428,80.78,21,0,5.75,SA,1727976523
568,navia,43.5354,-6.7194,63.95,85,94,3.98,ES,1727976524
569,paradip garh,20.3167,86.6167,83.93,77,86,6.38,IN,1727976526
570,saynshand,44.8824,110.1163,50.85,47,62,11.16,MN,1727976527
571,lakhdenpokh'ya,61.5198,30.1992,44.29,86,100,3.76,RU,1727976528
572,ullal,12.8,74.85,79.75,89,40,0.0,IN,1727976529
573,mogadishu,2.0371,45.3438,78.44,84,39,15.3,SO,1727976530
574,brookings,44.3114,-96.7984,61.25,52,84,5.01,US,1727976507
575,barah,13.7,30.3667,89.69,45,78,13.65,SD,1727976532
576,shaowu,27.3409,117.4831,58.03,87,50,1.05,CN,1727976534
577,el calafate,-50.3408,-72.2768,44.96,47,16,16.78,AR,1727976535
578,impfondo,1.6381,18.0667,77.92,70,93,3.87,CG,1727976536
579,sechura,-5.5569,-80.8222,78.67,58,35,8.61,PE,1727976537
580,mhamid,29.82,-5.72,98.15,14,0,7.58,MA,1727976538
581,pangody,65.85,74.4859,35.74,90,89,10.33,RU,1727976539
582,adelia maria,-33.6315,-64.021,76.69,12,33,14.23,AR,1727976541
583,lasem,-6.6922,111.4527,80.62,73,100,6.69,ID,1727976542
584,musoma,-1.5,33.8,76.91,65,93,6.93,TZ,1727976543
585,bodo,67.28,14.405,44.64,91,75,4.61,NO,1727976388
586,kuta,-8.7233,115.1723,80.55,94,20,6.91,ID,1727976330
587,muzayri',-8.7233,115.1723,80.55,94,20,6.91,ID,1727976330
588,shagonar,51.5333,92.8,44.35,58,46,2.15,RU,1727976548
589,laayoune plage,51.5333,92.8,44.35,58,46,2.15,RU,1727976548
590,agadez,19.75,10.25,94.96,15,9,4.32,NE,1727976550
591,todos santos,23.45,-110.2167,79.45,64,1,6.89,MX,1727976551
592,gold camp,33.2937,-111.3043,97.14,14,4,2.39,US,1727976552
593,tir pul,34.5943,61.269,79.92,18,5,10.07,AF,1727976554
594,bayan nur,34.5943,61.269,79.92,18,5,10.07,AF,1727976554
595,sarakhs,36.5449,61.1577,81.21,19,27,19.22,IR,1727976556
596,bir el hafey,34.9321,9.1932,83.3,26,100,17.47,TN,1727976374
597,vila franca do campo,37.7167,-25.4333,77.41,80,100,9.46,PT,1727976558
598,nadym,65.5333,72.5167,35.62,89,83,10.27,RU,1727976294
599,machico,32.7,-16.7667,82.71,65,20,21.85,PT,1727976561
600,cadale,2.7603,46.3222,79.18,76,80,15.01,SO,1727976562
601,saurimo,-9.6608,20.3916,76.93,49,69,4.41,AO,1727976563
602,milton,34.1322,-84.3007,83.48,66,2,1.01,US,1727976564
603,noosa heads,-26.3833,153.15,65.21,65,92,10.89,AU,1727976565
604,tara,56.8944,74.371,42.4,69,26,6.67,RU,1727976567
605,portland,45.5234,-122.6762,60.58,63,75,7.0,US,1727976284
606,manatutu,45.5234,-122.6762,60.58,63,75,7.0,US,1727976284
607,kafr laha,34.8947,36.4958,73.17,62,0,5.35,SY,1727976570
608,port glaud,34.8947,36.4958,73.17,62,0,5.35,SY,1727976570
